{
  "metadata": {
    "updated_at": "09/06/2025, 19:09:49",
    "geocoded": true
  },
  "data": [
    {
      "id": "lojas-participantes-bobbie-goods-",
      "name": "LOJAS PARTICIPANTES BOBBIE GOODS",
      "address": "",
      "city": "",
      "zip": "",
      "available": true
    },
    {
      "id": "restaurante-endereco-",
      "name": "RESTAURANTE",
      "address": "ENDEREÇO",
      "city": "CIDADE",
      "zip": "CEP",
      "available": true
    },
    {
      "id": "bkb-drive-aracaju-av-augusto-franco-av-augusto-franco-1361-49052230",
      "name": "BKB DRIVE ARACAJU AV AUGUSTO FRANCO",
      "address": "Av. Augusto Franco, 1361",
      "city": "Aracaju",
      "zip": "49052-230",
      "available": true,
      "lat": -10.9192455,
      "lng": -37.0692563
    },
    {
      "id": "bkb-nazare-av-nazare-759-66035170",
      "name": "BKB NAZARE",
      "address": "Av. Nazaré, 759",
      "city": "Belem",
      "zip": "66035-170",
      "available": true,
      "lat": -1.4532862,
      "lng": -48.4900613
    },
    {
      "id": "bkb-drive-bias-fortes-av-bias-fortes-30170122",
      "name": "BKB DRIVE BIAS FORTES",
      "address": "Av Bias Fortes",
      "city": "Belo Horizonte",
      "zip": "30170-122",
      "available": true,
      "lat": -19.9281807,
      "lng": -43.9418733
    },
    {
      "id": "bkb-drive-taguatinga-setor-a-sul-pll-setor-a-sul-pll-taguatinga-q-qsa-3-5-area-espec-s-n-a-sul-pll-72015034",
      "name": "BKB DRIVE TAGUATINGA SETOR A SUL PLL",
      "address": "Setor A Sul PLL, Taguatinga (Q QSA 3/5 AREA ESPEC S/N, A Sul PLL)",
      "city": "Brasilia",
      "zip": "72015-034",
      "available": true
    },
    {
      "id": "bkb-fs-tamandare-av-tamandare-2957-79118720",
      "name": "BKB FS TAMANDARE",
      "address": "Av. Tamandaré, 2957",
      "city": "Campo Grande",
      "zip": "79118-720",
      "available": true,
      "lat": -20.4344488,
      "lng": -54.6283169
    },
    {
      "id": "bkb-pantanal-shopping-av-historiador-rubens-de-mendonca-3300-78050250",
      "name": "BKB PANTANAL SHOPPING",
      "address": "Av. Historiador Rubens De Mendonça, 3300",
      "city": "Cuiaba",
      "zip": "78050-250",
      "available": true,
      "lat": -15.5765432,
      "lng": -56.0719336
    },
    {
      "id": "bkb-il-florianopolis-r-jeronimo-coelho-215-88010030",
      "name": "BKB IL FLORIANOPOLIS",
      "address": "R. Jerônimo Coelho, 215",
      "city": "Florianopolis",
      "zip": "88010-030",
      "available": true,
      "lat": -27.5971202,
      "lng": -48.5532066
    },
    {
      "id": "bkb-drive-goiania-avenida-t63-av-t-63-1672-74280230",
      "name": "BKB DRIVE GOIANIA AVENIDA T63",
      "address": "Av. T-63, 1672",
      "city": "Goiania",
      "zip": "74280-230",
      "available": true,
      "lat": -16.7168695,
      "lng": -49.2885879
    },
    {
      "id": "bkb-drive-joao-pessoa-av-hilton-souto-maior-1147-58073172",
      "name": "BKB DRIVE JOAO PESSOA",
      "address": "Av. Hilton Souto Maior, 1147",
      "city": "Joao Pessoa",
      "zip": "58073-172",
      "available": true,
      "lat": -7.1606458,
      "lng": -34.8096845
    },
    {
      "id": "bkb-drive-maceio-fernades-lima-av-fernandes-lima-830-57052050",
      "name": "BKB DRIVE MACEIO FERNADES LIMA",
      "address": "Av Fernandes Lima, 830",
      "city": "Maceio",
      "zip": "57052-050",
      "available": true,
      "lat": -9.6125096,
      "lng": -35.7401415
    },
    {
      "id": "bkb-drive-natal-av-bacharel-tomaz-landim-31391-av-bacharel-tomaz-landim-3042-59104212",
      "name": "BKB DRIVE NATAL AV BACHAREL TOMAZ LANDIM 31391",
      "address": "Av. Bacharel Tomaz Landim, 3042",
      "city": "Natal",
      "zip": "59104-212",
      "available": true,
      "lat": -5.766309,
      "lng": -35.2786996
    },
    {
      "id": "bkb-drive-recife-agamenon-magalhaes-avenida-governador-agamenon-magalhaes-111-52010075",
      "name": "BKB DRIVE RECIFE AGAMENON MAGALHAES",
      "address": "AVENIDA GOVERNADOR AGAMENON MAGALHAES, 111",
      "city": "Recife",
      "zip": "52010-075",
      "available": true,
      "lat": -8.053023,
      "lng": -34.8959549
    },
    {
      "id": "bkb-acm-salvador-av-antonio-carlos-magalhaes-s-n-41800700",
      "name": "BKB ACM SALVADOR",
      "address": "Av. Antônio Carlos Magalhães, S/N",
      "city": "Salvador",
      "zip": "41800-700",
      "available": true,
      "lat": -12.9961072,
      "lng": -38.4676824
    },
    {
      "id": "bkb-drive-fs-manoel-dias-avenida-manoel-dias-da-silva-1879-41830000",
      "name": "BKB DRIVE FS MANOEL DIAS",
      "address": "AVENIDA MANOEL DIAS DA SILVA , 1879",
      "city": "Salvador",
      "zip": "41830-000",
      "available": true,
      "lat": -13.0086456,
      "lng": -38.4643303
    },
    {
      "id": "bkb-shopping-da-ilha-av-daniel-de-la-touche-987-65074115",
      "name": "BKB SHOPPING DA ILHA",
      "address": "Av. Daniel De La Touche, 987",
      "city": "Sao Luis",
      "zip": "65074-115",
      "available": true,
      "lat": -2.5275915,
      "lng": -44.2550521
    },
    {
      "id": "bkb-shopping-vitoria-av-americo-buaiz-200-29050420",
      "name": "BKB SHOPPING VITORIA",
      "address": "Av. Américo Buaiz, 200",
      "city": "Vitoria",
      "zip": "29050-420",
      "available": true,
      "lat": -20.3137678,
      "lng": -40.2875596
    },
    {
      "id": "fs-americana-r-julio-prestes-s-n-13465620",
      "name": "FS AMERICANA",
      "address": "R. Júlio Prestes, S/N",
      "city": "Americana",
      "zip": "13465-620",
      "available": true,
      "lat": -22.7419263,
      "lng": -47.3352253
    },
    {
      "id": "fs-aracatuba-av-brasilia-761-16015460",
      "name": "FS ARACATUBA",
      "address": "Av. Brasília, 761",
      "city": "Araçatuba",
      "zip": "16015-460",
      "available": true,
      "lat": -21.2311215,
      "lng": -50.4389738
    },
    {
      "id": "fs-araraquara-av-padre-francisco-sales-colturato-470-14801250",
      "name": "FS ARARAQUARA",
      "address": "Av. Padre Francisco Sales Colturato, 470",
      "city": "Araraquara",
      "zip": "14801-250",
      "available": true
    },
    {
      "id": "fs-araras-av-dona-renata-2858-13603134",
      "name": "FS ARARAS",
      "address": "Av. Dona Renata, 2858",
      "city": "Araras",
      "zip": "13603-134",
      "available": true,
      "lat": -22.3604181,
      "lng": -47.3904635
    },
    {
      "id": "fs-avare-avenida-prefeito-paulo-de-araujo-novaes-61-18705000",
      "name": "FS AVARE",
      "address": "Avenida Prefeito Paulo de Araújo Novaes, 61",
      "city": "Avaré",
      "zip": "18705-000",
      "available": true
    },
    {
      "id": "fs-barueri-av-yojiro-takaoka-630-06472010",
      "name": "FS BARUERI",
      "address": "Av. Yojiro Takaoka, 630",
      "city": "Barueri",
      "zip": "06472-010",
      "available": true,
      "lat": -23.4850391,
      "lng": -46.8581705
    },
    {
      "id": "fs-bauru-av-castelo-branco-194-av-castelo-branco-1-106-17052000",
      "name": "FS BAURU  AV CASTELO BRANCO 194",
      "address": "Av Castelo Branco, 1-106",
      "city": "Bauru",
      "zip": "17052-000",
      "available": true,
      "lat": -22.3478797,
      "lng": -49.0986258
    },
    {
      "id": "shop-bauru-r-henrique-savi-15-55-17011900",
      "name": "SHOP BAURU",
      "address": "R. Henrique Savi, 15 55",
      "city": "Bauru",
      "zip": "17011-900",
      "available": true,
      "lat": -22.3425171,
      "lng": -49.0493097
    },
    {
      "id": "fs-boituva-av-ari-vercelino-1400-18550000",
      "name": "FS BOITUVA",
      "address": "Av. Ari Vercelino, 1400",
      "city": "Boituva",
      "zip": "18550-000",
      "available": true
    },
    {
      "id": "fs-campinas-av-jose-de-souza-campos-1387-13025320",
      "name": "FS CAMPINAS",
      "address": "Av. José de Souza Campos, 1387",
      "city": "Campinas",
      "zip": "13025-320",
      "available": true,
      "lat": -22.8875139,
      "lng": -47.0443801
    },
    {
      "id": "shop-serramar-av-jose-herculano-1086-11668600",
      "name": "SHOP SERRAMAR",
      "address": "Av. José Herculano, 1086",
      "city": "Caraguatatuba",
      "zip": "11668-600",
      "available": true,
      "lat": -23.6541874,
      "lng": -45.437064
    },
    {
      "id": "garden-shop-catanduva-av-jose-nelson-machado-280-15800200",
      "name": "GARDEN SHOP CATANDUVA",
      "address": "Av. José Nélson Machado, 280",
      "city": "Catanduva",
      "zip": "15800-200",
      "available": true,
      "lat": -21.1357055,
      "lng": -48.9687882
    },
    {
      "id": "fs-itatiba-av-marechal-castelo-branco-687-13255350",
      "name": "FS ITATIBA",
      "address": "Av. Marechal Castelo Branco, 687",
      "city": "Itatiba",
      "zip": "13255-350",
      "available": true,
      "lat": -23.0208131,
      "lng": -46.8424071
    },
    {
      "id": "shop-independencia-av-presidente-itamar-franco-3600-36025290",
      "name": "SHOP INDEPENDENCIA",
      "address": "Av. Presidente Itamar Franco, 3600",
      "city": "Juiz de Fora",
      "zip": "36025-290",
      "available": true,
      "lat": -21.7822647,
      "lng": -43.3612999
    },
    {
      "id": "fs-jf-av-barao-do-rio-branco-3234-36021630",
      "name": "FS JF",
      "address": "Av. Barão Do Rio Branco, 3234",
      "city": "Juiz de Fora",
      "zip": "36021-630",
      "available": true,
      "lat": -21.7731303,
      "lng": -43.3464926
    },
    {
      "id": "maxi-shop-jundiai-av-antonio-frederico-ozanan-6000-13215900",
      "name": "MAXI SHOP JUNDIAI",
      "address": "Av. Antônio Frederico Ozanan, 6000",
      "city": "Jundiaí",
      "zip": "13215-900",
      "available": true,
      "lat": -23.1693782,
      "lng": -46.8918129
    },
    {
      "id": "fs-leme-av-joaquim-lopes-aguila-125-13614032",
      "name": "FS LEME",
      "address": "Av. Joaquim Lopes Aguila, 125",
      "city": "Leme",
      "zip": "13614-032",
      "available": true,
      "lat": -22.1780689,
      "lng": -47.3782891
    },
    {
      "id": "marilia-shop-r-tucunares-500-17507280",
      "name": "MARILIA SHOP",
      "address": "R. Tucunarés, 500",
      "city": "Marília",
      "zip": "17507-280",
      "available": true,
      "lat": -22.1863094,
      "lng": -49.9669183
    },
    {
      "id": "osasco-plaza-shop-ii-r-tenente-avelar-pires-de-azevedo-81-06016060",
      "name": "OSASCO PLAZA SHOP II",
      "address": "R. Tenente Avelar Pires De Azevedo, 81",
      "city": "Osasco",
      "zip": "06016-060",
      "available": true,
      "lat": -23.5292939,
      "lng": -46.7778555
    },
    {
      "id": "fs-piracicaba-av-independencia-2677-13416240",
      "name": "FS PIRACICABA",
      "address": "Av. Independência, 2677",
      "city": "Piracicaba",
      "zip": "13416-240",
      "available": true,
      "lat": -22.7175924,
      "lng": -47.6328706
    },
    {
      "id": "shop-piracicaba-av-limeira-722-13414900",
      "name": "SHOP PIRACICABA",
      "address": "Av. Limeira, 722",
      "city": "Piracicaba",
      "zip": "13414-900",
      "available": true,
      "lat": -22.7040942,
      "lng": -47.6494677
    },
    {
      "id": "litoral-plaza-shop-av-ayrton-senna-da-silva-1511-11726000",
      "name": "LITORAL PLAZA SHOP",
      "address": "Av. Ayrton Senna Da Silva, 1511",
      "city": "Praia Grande",
      "zip": "11726-000",
      "available": true,
      "lat": -23.9977758,
      "lng": -46.4066
    },
    {
      "id": "fs-pres-prudente-av-washington-luiz-875-19015150",
      "name": "FS PRES PRUDENTE",
      "address": "Av. Washington Luiz, 875",
      "city": "Presidente Prudente",
      "zip": "19015-150",
      "available": true,
      "lat": -22.1197143,
      "lng": -51.3896112
    },
    {
      "id": "shop-santa-ursula-r-sao-jose-993-14010160",
      "name": "SHOP SANTA URSULA",
      "address": "R. São José, 993",
      "city": "Ribeirão Preto",
      "zip": "14010-160",
      "available": true,
      "lat": -21.1804616,
      "lng": -47.8070711
    },
    {
      "id": "fs-ribeirao-preto-av-capitao-salomao-2360-av-capitao-salomao-2360-14085440",
      "name": "FS RIBEIRAO PRETO AV CAPITAO SALOMAO 2360",
      "address": "Av Capitão Salomão, 2360",
      "city": "Ribeirão Preto",
      "zip": "14085-440",
      "available": true,
      "lat": -21.171866,
      "lng": -47.7978981
    },
    {
      "id": "ribeirao-shop-av-coronel-fernando-ferreira-leite-1540-14026580",
      "name": "RIBEIRAO SHOP",
      "address": "Av. Coronel Fernando Ferreira Leite, 1540",
      "city": "Ribeirão Preto",
      "zip": "14026-580",
      "available": true,
      "lat": -21.2123921,
      "lng": -47.8167652
    },
    {
      "id": "shop-grand-plaza-av-industrial-600-09921340",
      "name": "SHOP GRAND PLAZA",
      "address": "Av. Industrial, 600",
      "city": "Santo André",
      "zip": "09921-340",
      "available": true,
      "lat": -23.648716,
      "lng": -46.53192
    },
    {
      "id": "praia-mar-shop-santos-r-alexandre-martins-80-11025200",
      "name": "PRAIA MAR SHOP SANTOS",
      "address": "R. Alexandre Martins, 80",
      "city": "Santos",
      "zip": "11025-200",
      "available": true,
      "lat": -23.9778305,
      "lng": -46.3087111
    },
    {
      "id": "fs-sbc-av-francisco-prestes-maia-1001-09770000",
      "name": "FS SBC",
      "address": "Av. Francisco Prestes Maia, 1001",
      "city": "São Bernardo do Campo",
      "zip": "09770-000",
      "available": true,
      "lat": -23.7112307,
      "lng": -46.5436824
    },
    {
      "id": "shop-metropole-sbc-pca-samuel-sabatini-200-09750700",
      "name": "SHOP METROPOLE SBC",
      "address": "Pça Samuel Sabatini, 200",
      "city": "São Bernardo do Campo",
      "zip": "09750-700",
      "available": true
    },
    {
      "id": "fs-sjrp-r-professor-jamil-kauan-s-n-15015620",
      "name": "FS SJRP",
      "address": "R. Professor Jamil Kauan, S/N",
      "city": "São José do Rio Preto",
      "zip": "15015-620",
      "available": true,
      "lat": -20.8162316,
      "lng": -49.392488
    },
    {
      "id": "centervale-shop-av-dep-benedito-matarazzo-9403-12215900",
      "name": "CENTERVALE SHOP",
      "address": "Av. Dep. Benedito Matarazzo, 9403",
      "city": "São José dos Campos",
      "zip": "12215-900",
      "available": true,
      "lat": -23.2349879,
      "lng": -45.9169481
    },
    {
      "id": "fs-sjc-rua-euclides-miragaia-445-12245902",
      "name": "FS SJC",
      "address": "Rua Euclides Miragaia, 445",
      "city": "São José dos Campos",
      "zip": "12245-902",
      "available": true,
      "lat": -23.1921121,
      "lng": -45.8910164
    },
    {
      "id": "shop-vale-sul-av-andromeda-227-12230000",
      "name": "SHOP VALE SUL",
      "address": "Av. Andrômeda, 227",
      "city": "São José dos Campos",
      "zip": "12230-000",
      "available": true,
      "lat": -23.2172751,
      "lng": -45.8913287
    },
    {
      "id": "fs-sp-av-anhaia-mello-1242-03154000",
      "name": "FS SP",
      "address": "Av. Anhaia Mello, 1242",
      "city": "São Paulo",
      "zip": "03154-000",
      "available": true,
      "lat": -23.5851821,
      "lng": -46.5814169
    },
    {
      "id": "fs-sp-av-dumont-villares-1159-05640001",
      "name": "FS SP",
      "address": "Av. Dumont Villares, 1159",
      "city": "São Paulo",
      "zip": "05640-001",
      "available": true,
      "lat": -23.4917755,
      "lng": -46.6112435
    },
    {
      "id": "ilr-sp-av-paulista-633-01311100",
      "name": "ILR SP",
      "address": "Av. Paulista, 633",
      "city": "São Paulo",
      "zip": "01311-100",
      "available": true,
      "lat": -23.5659073,
      "lng": -46.6510055
    },
    {
      "id": "shop-metro-boulevard-tatuape-r-goncalves-crespo-78-03066030",
      "name": "SHOP METRO BOULEVARD TATUAPE",
      "address": "R. Gonçalves Crespo, 78",
      "city": "São Paulo",
      "zip": "03066-030",
      "available": true,
      "lat": -23.5389987,
      "lng": -46.5763358
    },
    {
      "id": "bourbon-shop-sp-r-turiassu-2100-05005900",
      "name": "BOURBON SHOP SP",
      "address": "R. Turiassu, 2100",
      "city": "São Paulo",
      "zip": "05005-900",
      "available": true,
      "lat": -23.5266066,
      "lng": -46.6805886
    },
    {
      "id": "shop-d-av-cruzeiro-do-sul-1100-03033020",
      "name": "SHOP D",
      "address": "Av. Cruzeiro Do Sul, 1100",
      "city": "São Paulo",
      "zip": "03033-020",
      "available": true,
      "lat": -23.521589,
      "lng": -46.6237969
    },
    {
      "id": "shop-metro-tatuape-r-doutor-mello-freire-s-n-03314030",
      "name": "SHOP METRO TATUAPE",
      "address": "R. Doutor Mello Freire S/N",
      "city": "São Paulo",
      "zip": "03314-030",
      "available": true
    },
    {
      "id": "ils-shop-center-penha-sp-r-dr-joao-ribeiro-304-03178200",
      "name": "ILS SHOP CENTER PENHA SP",
      "address": "R. Dr. João Ribeiro, 304",
      "city": "São Paulo",
      "zip": "03178-200",
      "available": true,
      "lat": -23.5251778,
      "lng": -46.5467519
    },
    {
      "id": "fs-sp-av-ragueb-chohfi-2142-08340001",
      "name": "FS SP",
      "address": "Av. Ragueb Chohfi, 2142",
      "city": "São Paulo",
      "zip": "08340-001",
      "available": true,
      "lat": -23.595956,
      "lng": -46.4528543
    },
    {
      "id": "shop-plaza-sul-avenida-professor-abraao-de-morais-100-04123000",
      "name": "SHOP PLAZA SUL",
      "address": "Avenida Professor Abraao de Morais, 100",
      "city": "São Paulo",
      "zip": "04123-000",
      "available": true,
      "lat": -23.6140468,
      "lng": -46.6273429
    },
    {
      "id": "shop-ibirapuera-av-ibirapuera-3103-04029902",
      "name": "SHOP IBIRAPUERA",
      "address": "Av. Ibirapuera 3103",
      "city": "São Paulo",
      "zip": "04029-902",
      "available": true,
      "lat": -23.6101927,
      "lng": -46.6668742
    },
    {
      "id": "fs-sp-av-interlagos-3650-av-interlagos-3650-04660006",
      "name": "FS SP  AV INTERLAGOS 3650",
      "address": "Av. Interlagos 3650",
      "city": "São Paulo",
      "zip": "04660-006",
      "available": true,
      "lat": -23.6805606,
      "lng": -46.6877098
    },
    {
      "id": "fs-sp-avenida-juscelino-kubitscheck-1514-04543000",
      "name": "FS SP",
      "address": "Avenida Juscelino Kubitscheck, 1514",
      "city": "São Paulo",
      "zip": "04543-000",
      "available": true,
      "lat": -23.2019159,
      "lng": -46.7773976
    },
    {
      "id": "shop-iguatemi-esplanada-ii-av-professora-izoraida-marques-peres-401-18048000",
      "name": "SHOP IGUATEMI ESPLANADA II",
      "address": "Av Professora Izoraida Marques Peres, 401",
      "city": "Votorantim",
      "zip": "18048-000",
      "available": true,
      "lat": -23.5354547,
      "lng": -47.4653071
    },
    {
      "id": "bkb-drive-fortaleza-av-treze-de-maio-av-treze-de-maio-2072-60040212",
      "name": "BKB DRIVE FORTALEZA AV TREZE DE MAIO",
      "address": "Av. Treze de Maio, 2072",
      "city": "Fortaleza",
      "zip": "60040-212",
      "available": true,
      "lat": -3.741655,
      "lng": -38.5382582
    },
    {
      "id": "bkb-santos-dumont-drive-av-santos-dumont-1859-60177415",
      "name": "BKB SANTOS DUMONT DRIVE",
      "address": "Av. Santos Dumont, 1859",
      "city": "Fortaleza",
      "zip": "60177-415",
      "available": true,
      "lat": -3.7330985,
      "lng": -38.5070905
    },
    {
      "id": "bkb-drive-carlos-klemtz-carlos-klemtz-1994-fazendinha-81320000",
      "name": "BKB DRIVE CARLOS KLEMTZ",
      "address": "Carlos Klemtz, 1994, Fazendinha",
      "city": "Curitiba",
      "zip": "81320-000",
      "available": false,
      "lat": -25.4780871,
      "lng": -49.3294837
    },
    {
      "id": "bkb-fs-francisco-frischmann-rua-francisco-frishmann-3151-80320250",
      "name": "BKB FS FRANCISCO FRISCHMANN",
      "address": "Rua Francisco Frishmann, 3151",
      "city": "Curitiba",
      "zip": "80320-250",
      "available": false
    },
    {
      "id": "bkb-av-ipiranga-av-ipiranga-1600-90160091",
      "name": "BKB AV. IPIRANGA",
      "address": "Av. Ipiranga, 1600",
      "city": "Porto Alegre",
      "zip": "90160-091",
      "available": false,
      "lat": -30.0471137,
      "lng": -51.2127851
    },
    {
      "id": "fs-sp-avenida-reboucas-2184-05402300",
      "name": "FS SP",
      "address": "Avenida Rebouças, 2184",
      "city": "São Paulo",
      "zip": "05402-300",
      "available": false,
      "lat": -23.566793,
      "lng": -46.6824892
    },
    {
      "id": "fs-sp-praca-pan-americana-21-05461000",
      "name": "FS SP",
      "address": "Praça Pan-Americana, 21",
      "city": "São Paulo",
      "zip": "05461-000",
      "available": false
    },
    {
      "id": "fs-atibaia-al-prof-lucas-nogueira-garcez-3586-12942020",
      "name": "FS ATIBAIA",
      "address": "Al. Prof. Lucas Nogueira Garcez, 3586",
      "city": "Atibaia",
      "zip": "12942-020",
      "available": false,
      "lat": -23.1204241,
      "lng": -46.5526998
    },
    {
      "id": "shop-tambore-av-piracema-669-06460030",
      "name": "SHOP TAMBORE",
      "address": "Av. Piracema, 669",
      "city": "Barueri",
      "zip": "06460-030",
      "available": false,
      "lat": -23.4995009,
      "lng": -46.8324763
    },
    {
      "id": "fs-barueri-av-henriqueta-mendes-guerra-avenida-vinte-e-seis-de-marco-535-06401050",
      "name": "FS BARUERI  AV HENRIQUETA MENDES GUERRA",
      "address": "AVENIDA VINTE E SEIS DE MARCO, 535",
      "city": "Barueri",
      "zip": "06401-050",
      "available": false,
      "lat": -23.5109667,
      "lng": -46.8817695
    },
    {
      "id": "shop-park-lagos-cabo-frio-r-henrique-terra-1700-28911320",
      "name": "SHOP PARK LAGOS CABO FRIO",
      "address": "R. Henrique Terra, 1700",
      "city": "Cabo Frio",
      "zip": "28911-320",
      "available": false,
      "lat": -22.8730441,
      "lng": -42.0356885
    },
    {
      "id": "shop-iguatemi-campinas-ii-av-iguatemi-777-13092902",
      "name": "SHOP IGUATEMI CAMPINAS II",
      "address": "Av. Iguatemi, 777",
      "city": "Campinas",
      "zip": "13092-902",
      "available": false,
      "lat": -22.8924024,
      "lng": -47.0272094
    },
    {
      "id": "fs-campinas-av-brasil-761-13073012",
      "name": "FS CAMPINAS",
      "address": "Av. Brasil, 761",
      "city": "Campinas",
      "zip": "13073-012",
      "available": false,
      "lat": -22.8620452,
      "lng": -46.965633
    },
    {
      "id": "shop-parque-das-bandeiras-av-john-boyd-dunlop-3900-13059587",
      "name": "SHOP PARQUE DAS BANDEIRAS",
      "address": "Av. John Boyd Dunlop, 3900",
      "city": "Campinas",
      "zip": "13059-587",
      "available": false,
      "lat": -22.9253226,
      "lng": -47.1269038
    },
    {
      "id": "ilr-campinas-rua-treze-de-maio-734-13010071",
      "name": "ILR CAMPINAS",
      "address": "Rua Treze de Maio, 734",
      "city": "Campinas",
      "zip": "13010-071",
      "available": false,
      "lat": -22.8683094,
      "lng": -46.9584922
    },
    {
      "id": "parque-dom-pedro-shop-av-guilherme-campos-500-13087901",
      "name": "PARQUE DOM PEDRO SHOP",
      "address": "Av. Guilherme Campos, 500",
      "city": "Campinas",
      "zip": "13087-901",
      "available": false,
      "lat": -22.8502019,
      "lng": -47.062371
    },
    {
      "id": "campinas-shop-r-jacy-texeira-camargo-940-13050008",
      "name": "CAMPINAS SHOP",
      "address": "R. Jacy Texeira Camargo, 940",
      "city": "Campinas",
      "zip": "13050-008",
      "available": false
    },
    {
      "id": "fs-carapicuiba-avenida-inocencio-serafico-3469-06380021",
      "name": "FS CARAPICUIBA",
      "address": "Avenida Inocencio Serafico, 3469",
      "city": "Carapicuíba",
      "zip": "06380-021",
      "available": false,
      "lat": -23.5501478,
      "lng": -46.8351038
    },
    {
      "id": "fs-carapicuiba-av-deputado-emilio-carlos-225-06310160",
      "name": "FS CARAPICUIBA",
      "address": "Av. Deputado Emílio Carlos, 225",
      "city": "Carapicuíba",
      "zip": "06310-160",
      "available": false,
      "lat": -23.5177894,
      "lng": -46.8387367
    },
    {
      "id": "shop-granja-viana-rod-raposo-tavares-23500-06709015",
      "name": "SHOP GRANJA VIANA",
      "address": "Rod. Raposo Tavares, 23500",
      "city": "Cotia",
      "zip": "06709-015",
      "available": false
    },
    {
      "id": "caxias-shop-rod-washington-luiz-2895-25085008",
      "name": "CAXIAS SHOP",
      "address": "Rod. Washington Luiz, 2895",
      "city": "Duque de Caxias",
      "zip": "25085-008",
      "available": false
    },
    {
      "id": "fs-duque-de-caxias-av-brigadeiro-lima-e-silva-711-25085131",
      "name": "FS DUQUE DE CAXIAS",
      "address": "Av. Brigadeiro Lima e Silva, 711",
      "city": "Duque de Caxias",
      "zip": "25085-131",
      "available": false,
      "lat": -22.7966528,
      "lng": -43.294946
    },
    {
      "id": "fs-embu-das-artes-av-elias-yasbek-708-06803000",
      "name": "FS EMBU DAS ARTES",
      "address": "Av. Elias Yasbek, 708",
      "city": "Embu das Artes",
      "zip": "06803-000",
      "available": false
    },
    {
      "id": "ils-franca-shop-av-rio-negro-1100-14406005",
      "name": "ILS FRANCA SHOP",
      "address": "Av. Rio Negro, 1100",
      "city": "Franca",
      "zip": "14406-005",
      "available": false,
      "lat": -20.5472134,
      "lng": -47.4160046
    },
    {
      "id": "shop-la-plage-av-mal-deodoro-da-fonseca-885-11410221",
      "name": "SHOP LA PLAGE",
      "address": "Av. Mal. Deodoro Da Fonseca, 885",
      "city": "Guarujá",
      "zip": "11410-221",
      "available": false,
      "lat": -23.9991109,
      "lng": -46.2605292
    },
    {
      "id": "parque-shopping-maia-av-bartholomeu-de-carlos-230-07097420",
      "name": "PARQUE SHOPPING MAIA",
      "address": "Av. Bartholomeu De Carlos, 230",
      "city": "Guarulhos",
      "zip": "07097-420",
      "available": false,
      "lat": -23.439994,
      "lng": -46.5438925
    },
    {
      "id": "fs-indaiatuba-av-engenheiro-fabio-roberto-barnabe-1517-13330490",
      "name": "FS INDAIATUBA",
      "address": "Av. Engenheiro Fábio Roberto Barnabe, 1517",
      "city": "Indaiatuba",
      "zip": "13330-490",
      "available": false,
      "lat": -23.0886743,
      "lng": -47.2255651
    },
    {
      "id": "shop-itapevi-center-rod-engenheiro-rene-benedito-da-silva-200-06683000",
      "name": "SHOP ITAPEVI CENTER",
      "address": "Rod. Engenheiro Renê Benedito Da Silva, 200",
      "city": "Itapevi",
      "zip": "06683-000",
      "available": false
    },
    {
      "id": "fs-jau-av-deputado-zien-nassif-s-n-17203570",
      "name": "FS JAU",
      "address": "Av. Deputado Zien Nassif, S/N",
      "city": "Jaú",
      "zip": "17203-570",
      "available": false,
      "lat": -22.2804069,
      "lng": -48.567327
    },
    {
      "id": "fs-jundiai-av-pref-luiz-latorre-s-n-13209430",
      "name": "FS JUNDIAI",
      "address": "Av. Pref. Luiz Latorre, S/N",
      "city": "Jundiaí",
      "zip": "13209-430",
      "available": false
    },
    {
      "id": "fs-rj-rua-maria-francisca-borges-rego-reid-27933260",
      "name": "FS RJ",
      "address": "Rua Maria Francisca Borges Rego Reid",
      "city": "Macaé",
      "zip": "27933-260",
      "available": false
    },
    {
      "id": "fs-marilia-av-tiradentes-1008-17519000",
      "name": "FS MARILIA",
      "address": "Av. Tiradentes, 1008",
      "city": "Marília",
      "zip": "17519-000",
      "available": false,
      "lat": -22.2241558,
      "lng": -49.9356669
    },
    {
      "id": "plaza-shop-niteroi-r-xv-de-novembro-8-24025970",
      "name": "PLAZA SHOP NITEROI",
      "address": "R. Xv De Novembro, 8",
      "city": "Niterói",
      "zip": "24025-970",
      "available": false,
      "lat": -22.8967206,
      "lng": -43.1239169
    },
    {
      "id": "ilr-niteroi-r-gaviao-peixoto-35-24230090",
      "name": "ILR NITEROI",
      "address": "R. Gavião Peixoto, 35",
      "city": "Niterói",
      "zip": "24230-090",
      "available": false,
      "lat": -22.9033796,
      "lng": -43.1104084
    },
    {
      "id": "shop-nova-iguacu-av-abilio-augusto-tavora-1061-26262020",
      "name": "SHOP NOVA IGUACU",
      "address": "Av. Abílio Augusto Távora, 1061",
      "city": "Nova Iguaçu",
      "zip": "26262-020",
      "available": false,
      "lat": -22.8276239,
      "lng": -43.6003368
    },
    {
      "id": "fs-nova-iguacu-rodovia-presidente-dutra-13006-26221190",
      "name": "FS NOVA IGUACU",
      "address": "Rodovia Presidente Dutra, 13006",
      "city": "Nova Iguaçu",
      "zip": "26221-190",
      "available": false,
      "lat": -22.7399614,
      "lng": -43.4601615
    },
    {
      "id": "fs-nova-iguacu-rodovia-presidente-dutra-14251-26221190",
      "name": "FS NOVA IGUACU",
      "address": "Rodovia Presidente Dutra, 14251",
      "city": "Nova Iguaçu",
      "zip": "26221-190",
      "available": false,
      "lat": -22.7399614,
      "lng": -43.4601615
    },
    {
      "id": "ilr-osasco-plaza-shop-r-tenente-avelar-pires-de-azevedo-81-06016060",
      "name": "ILR OSASCO PLAZA SHOP",
      "address": "R. Tenente Avelar Pires De Azevedo, 81",
      "city": "Osasco",
      "zip": "06016-060",
      "available": false,
      "lat": -23.5292939,
      "lng": -46.7778555
    },
    {
      "id": "shop-uniao-osasco-av-dos-autonomistas-1400-06020010",
      "name": "SHOP UNIAO OSASCO",
      "address": "Av. Dos Autonomistas, 1400",
      "city": "Osasco",
      "zip": "06020-010",
      "available": false,
      "lat": -23.5389781,
      "lng": -46.7653358
    },
    {
      "id": "super-shop-osasco-av-dos-autonomistas-1768-06020010",
      "name": "SUPER SHOP OSASCO",
      "address": "Av. Dos Autonomistas, 1768",
      "city": "Osasco",
      "zip": "06020-010",
      "available": false,
      "lat": -23.5382175,
      "lng": -46.7708867
    },
    {
      "id": "fs-rio-claro-r-14-909-13504164",
      "name": "FS RIO CLARO",
      "address": "R. 14, 909",
      "city": "Rio Claro",
      "zip": "13504-164",
      "available": false,
      "lat": -22.4167747,
      "lng": -47.5685057
    },
    {
      "id": "fs-rj-av-dom-helder-camara-5911-20771035",
      "name": "FS RJ",
      "address": "Av. Dom Helder Câmara, 5911",
      "city": "Rio de Janeiro",
      "zip": "20771-035",
      "available": false,
      "lat": -22.8910864,
      "lng": -43.2416843
    },
    {
      "id": "fs-rj-av-das-americas-17431-22790703",
      "name": "FS RJ",
      "address": "Av. das Américas, 17431",
      "city": "Rio de Janeiro",
      "zip": "22790-703",
      "available": false,
      "lat": -23.0176895,
      "lng": -43.4781773
    },
    {
      "id": "shop-bangu-r-fonseca-240-21820005",
      "name": "SHOP BANGU",
      "address": "R. Fonseca, 240",
      "city": "Rio de Janeiro",
      "zip": "21820-005",
      "available": false,
      "lat": -22.8791681,
      "lng": -43.4670603
    },
    {
      "id": "park-shop-campo-grande-estr-do-monteiro-1200-23036340",
      "name": "PARK SHOP CAMPO GRANDE",
      "address": "Estr. Do Monteiro, 1200",
      "city": "Rio de Janeiro",
      "zip": "23036-340",
      "available": false,
      "lat": -22.9278687,
      "lng": -43.5747814
    },
    {
      "id": "ilr-rj-r-senador-dantas-177-26440100",
      "name": "ILR RJ",
      "address": "R. Senador Dantas, 177",
      "city": "Rio de Janeiro",
      "zip": "26440-100",
      "available": false,
      "lat": -22.9104364,
      "lng": -43.177355
    },
    {
      "id": "ils-via-brasil-shop-rj-r-itapera-500-21230500",
      "name": "ILS VIA BRASIL SHOP RJ",
      "address": "R. Itapera, 500",
      "city": "Rio de Janeiro",
      "zip": "21230-500",
      "available": false,
      "lat": -22.8230781,
      "lng": -43.3197842
    },
    {
      "id": "barra-shop-rj-av-das-americas-4666-22640102",
      "name": "BARRA SHOP RJ",
      "address": "Av Das Américas, 4666",
      "city": "Rio de Janeiro",
      "zip": "22640-102",
      "available": false,
      "lat": -22.9983212,
      "lng": -43.3558548
    },
    {
      "id": "fs-rj-estrada-dos-bandeirantes-3300-estrada-dos-bandeirantes-330-22775110",
      "name": "FS RJ  ESTRADA DOS BANDEIRANTES 3300",
      "address": "Estrada dos Bandeirantes, 330",
      "city": "Rio de Janeiro",
      "zip": "22775-110",
      "available": false,
      "lat": -22.9523667,
      "lng": -43.375321
    },
    {
      "id": "fc-etr-rodrigues-caldas-127-suc-4007-piso-l4-22730250",
      "name": "FC",
      "address": "ETR Rodrigues Caldas, 127 Suc 4007 Piso L4",
      "city": "Rio de Janeiro",
      "zip": "22730-250",
      "available": false
    },
    {
      "id": "west-shop-estr-do-mendanha-555-23087283",
      "name": "WEST SHOP",
      "address": "Estr. Do Mendanha, 555",
      "city": "Rio de Janeiro",
      "zip": "23087-283",
      "available": false,
      "lat": -22.884572,
      "lng": -43.5577678
    },
    {
      "id": "fs-rj-rua-francisco-real-924-21810042",
      "name": "FS RJ",
      "address": "Rua Francisco Real, 924",
      "city": "Rio de Janeiro",
      "zip": "21810-042",
      "available": false,
      "lat": -22.8796632,
      "lng": -43.4651752
    },
    {
      "id": "shop-boulevard-rio-r-barao-de-sao-francisco-236-20560030",
      "name": "SHOP BOULEVARD RIO",
      "address": "R. Barão De São Francisco, 236",
      "city": "Rio de Janeiro",
      "zip": "20560-030",
      "available": false,
      "lat": -22.9194148,
      "lng": -43.250161
    },
    {
      "id": "ilr-rj-r-general-roca-675-20521070",
      "name": "ILR RJ",
      "address": "R. General Roca, 675",
      "city": "Rio de Janeiro",
      "zip": "20521-070",
      "available": false,
      "lat": -22.9250454,
      "lng": -43.2330397
    },
    {
      "id": "fs-sao-carlos-av-francisco-pereira-lopes-1701-13561250",
      "name": "FS SAO CARLOS",
      "address": "Av. Francisco Pereira Lopes, 1701",
      "city": "São Carlos",
      "zip": "13561-250",
      "available": false,
      "lat": -22.0047454,
      "lng": -47.9051293
    },
    {
      "id": "shop-sao-goncalo-av-sao-goncalo-100-24445010",
      "name": "SHOP SAO GONCALO",
      "address": "Av. São Gonçalo, 100",
      "city": "São Gonçalo",
      "zip": "24445-010",
      "available": false,
      "lat": -22.8151144,
      "lng": -43.0703818
    },
    {
      "id": "shop-grande-rio-ii-r-maria-soares-sendas-111-25575825",
      "name": "SHOP GRANDE RIO II",
      "address": "R. Maria Soares Sendas, 111",
      "city": "São João de Meriti",
      "zip": "25575-825",
      "available": false,
      "lat": -22.7969767,
      "lng": -43.3514164
    },
    {
      "id": "fs-sp-r-periquito-55-04514050",
      "name": "FS SP",
      "address": "R. Periquito, 55",
      "city": "São Paulo",
      "zip": "04514-050",
      "available": false,
      "lat": -23.5990948,
      "lng": -46.6723338
    },
    {
      "id": "fs-sp-r-carlos-lisdegno-carlucci-46-05536000",
      "name": "FS SP",
      "address": "R. Carlos Lisdegno Carlucci, 46",
      "city": "São Paulo",
      "zip": "05536-000",
      "available": false,
      "lat": -23.5887436,
      "lng": -46.7385436
    },
    {
      "id": "fs-sp-av-washington-luis-1171-04662002",
      "name": "FS SP",
      "address": "Av. Washington Luis, 1171",
      "city": "São Paulo",
      "zip": "04662-002",
      "available": false,
      "lat": -23.6562487,
      "lng": -46.694272
    },
    {
      "id": "shop-interlagos-av-interlagos-2255-04661200",
      "name": "SHOP INTERLAGOS",
      "address": "Av. Interlagos 2255",
      "city": "São Paulo",
      "zip": "04661-200",
      "available": false,
      "lat": -23.6762873,
      "lng": -46.6768114
    },
    {
      "id": "ilr-sp-av-angelica-1076-01228100",
      "name": "ILR SP",
      "address": "Av. Angélica, 1076",
      "city": "São Paulo",
      "zip": "01228-100",
      "available": false,
      "lat": -23.5421444,
      "lng": -46.6562112
    },
    {
      "id": "shopping-jk-iguatemi-av-presidente-juscelino-kubitschek-2041-04543011",
      "name": "SHOPPING JK IGUATEMI",
      "address": "Av. Presidente Juscelino Kubitschek, 2041",
      "city": "São Paulo",
      "zip": "04543-011",
      "available": false,
      "lat": -23.5908988,
      "lng": -46.689525
    },
    {
      "id": "fs-sp-av-jose-maria-whitaker-418-04026002",
      "name": "FS SP",
      "address": "Av Jose Maria Whitaker, 418",
      "city": "São Paulo",
      "zip": "04026-002",
      "available": false,
      "lat": -23.6022332,
      "lng": -46.6507007
    },
    {
      "id": "shopping-mooca-plaza-r-capitao-pacheco-e-chaves-313-03126000",
      "name": "SHOPPING MOOCA PLAZA",
      "address": "R. Capitão Pacheco E Chaves, 313",
      "city": "São Paulo",
      "zip": "03126-000",
      "available": false,
      "lat": -23.5797396,
      "lng": -46.5942462
    },
    {
      "id": "ilr-sp-rua-augusta-2611-01413100",
      "name": "ILR SP",
      "address": "Rua Augusta, 2611",
      "city": "São Paulo",
      "zip": "01413-100",
      "available": false,
      "lat": -23.5639342,
      "lng": -46.6661841
    },
    {
      "id": "fz-av-das-nacoes-unidas-15187-04794000",
      "name": "FZ",
      "address": "Av das Nações Unidas, 15187",
      "city": "São Paulo",
      "zip": "04794-000",
      "available": false,
      "lat": -23.6286284,
      "lng": -46.7120243
    },
    {
      "id": "ilr-sp-av-pedroso-de-morais-1556-05420002",
      "name": "ILR SP",
      "address": "Av. Pedroso de Morais, 1556",
      "city": "São Paulo",
      "zip": "05420-002",
      "available": false,
      "lat": -23.5556961,
      "lng": -46.7046821
    },
    {
      "id": "ilr-sp-rua-cerro-cora-1556-05061300",
      "name": "ILR SP",
      "address": "Rua Cerro Corá, 1556",
      "city": "São Paulo",
      "zip": "05061-300",
      "available": false,
      "lat": -23.5359029,
      "lng": -46.7098716
    },
    {
      "id": "fs-sp-av-alcantara-machado-1884-03102004",
      "name": "FS SP",
      "address": "Av. Alcântara Machado, 1884",
      "city": "São Paulo",
      "zip": "03102-004",
      "available": false,
      "lat": -23.5503599,
      "lng": -46.6063046
    },
    {
      "id": "santana-park-shop-av-conselheiro-moreira-de-barros-2780-02430001",
      "name": "SANTANA PARK SHOP",
      "address": "Av. Conselheiro Moreira De Barros, 2780",
      "city": "São Paulo",
      "zip": "02430-001",
      "available": false
    },
    {
      "id": "shop-aricanduva-leste-av-aricanduva-5555-03527900",
      "name": "SHOP ARICANDUVA LESTE",
      "address": "Av. Aricanduva, 5555",
      "city": "São Paulo",
      "zip": "03527-900",
      "available": false,
      "lat": -23.5659937,
      "lng": -46.504011
    },
    {
      "id": "shop-central-plaza-av-dr-francisco-mesquita-1000-03153001",
      "name": "SHOP CENTRAL PLAZA",
      "address": "Av. Dr. Francisco Mesquita, 1000",
      "city": "São Paulo",
      "zip": "03153-001",
      "available": false,
      "lat": -23.5936129,
      "lng": -46.5856244
    },
    {
      "id": "shop-aricanduva-av-aricanduva-5555-03527900",
      "name": "SHOP ARICANDUVA",
      "address": "Av. Aricanduva, 5555",
      "city": "São Paulo",
      "zip": "03527-900",
      "available": false,
      "lat": -23.5659937,
      "lng": -46.504011
    },
    {
      "id": "shop-raposo-rod-raposo-tavares-km-14-5-05577200",
      "name": "SHOP RAPOSO",
      "address": "Rod. Raposo Tavares Km 14,5",
      "city": "São Paulo",
      "zip": "05577-200",
      "available": false
    },
    {
      "id": "morumbi-shop-av-roque-petroni-junior-1089-04707900",
      "name": "MORUMBI SHOP",
      "address": "Av. Roque Petroni Júnior, 1089",
      "city": "São Paulo",
      "zip": "04707-900",
      "available": false,
      "lat": -23.6234167,
      "lng": -46.6985436
    },
    {
      "id": "fs-sp-av-giovanni-gronchi-6600-05724002",
      "name": "FS SP",
      "address": "Av. Giovanni Gronchi, 6600",
      "city": "São Paulo",
      "zip": "05724-002",
      "available": false,
      "lat": -23.6289429,
      "lng": -46.7361067
    },
    {
      "id": "fs-sp-rua-pedro-durante-48-05830330",
      "name": "FS SP",
      "address": "Rua Pedro Durante, 48",
      "city": "São Paulo",
      "zip": "05830-330",
      "available": false,
      "lat": -23.671501,
      "lng": -46.7428396
    },
    {
      "id": "fs-sp-rua-rubem-souto-de-araujo-1011-04836235",
      "name": "FS SP",
      "address": "Rua Rubem Souto de Araújo, 1011",
      "city": "São Paulo",
      "zip": "04836-235",
      "available": false,
      "lat": -23.7405433,
      "lng": -46.7070807
    },
    {
      "id": "fs-sp-av-moreira-guimaraes-700-04074020",
      "name": "FS SP",
      "address": "Av. Moreira Guimarães, 700",
      "city": "São Paulo",
      "zip": "04074-020",
      "available": false,
      "lat": -23.6117586,
      "lng": -46.6568563
    },
    {
      "id": "fs-sp-av-vicente-rao-1700-04636001",
      "name": "FS SP",
      "address": "Av. Vicente Rao, 1700",
      "city": "São Paulo",
      "zip": "04636-001",
      "available": false,
      "lat": -23.6381694,
      "lng": -46.6773359
    },
    {
      "id": "fs-sp-av-corifeu-de-azevedo-marques-4160-05340002",
      "name": "FS SP",
      "address": "Av. Corifeu De Azevedo Marques, 4160",
      "city": "São Paulo",
      "zip": "05340-002",
      "available": false,
      "lat": -23.5585028,
      "lng": -46.7476268
    },
    {
      "id": "shop-eldorado-av-reboucas-3970-05402600",
      "name": "SHOP ELDORADO",
      "address": "Av. Rebouças, 3970",
      "city": "São Paulo",
      "zip": "05402-600",
      "available": false,
      "lat": -23.5737033,
      "lng": -46.6958894
    },
    {
      "id": "shop-campo-limpo-estr-de-itapecirica-459-05777001",
      "name": "SHOP CAMPO LIMPO",
      "address": "Estr. De Itapecirica, 459",
      "city": "São Paulo",
      "zip": "05777-001",
      "available": false,
      "lat": -23.6707506,
      "lng": -46.8559345
    },
    {
      "id": "shop-sp-market-av-nacoes-unidas-22540-04795000",
      "name": "SHOP SP MARKET",
      "address": "Av. Nações Unidas, 22540",
      "city": "São Paulo",
      "zip": "04795-000",
      "available": false,
      "lat": -23.6803083,
      "lng": -46.6990615
    },
    {
      "id": "shop-brisamar-sao-vicente-r-frei-gaspar-365-11310060",
      "name": "SHOP BRISAMAR SAO VICENTE",
      "address": "R. Frei Gaspar, 365",
      "city": "São Vicente",
      "zip": "11310-060",
      "available": false,
      "lat": -23.9680038,
      "lng": -46.3839244
    },
    {
      "id": "fs-sertaozinho-avenida-antonio-paschoal-1447-14160500",
      "name": "FS SERTAOZINHO",
      "address": "Avenida Antônio Paschoal, 1447",
      "city": "Sertãozinho",
      "zip": "14160-500",
      "available": false,
      "lat": -21.1420447,
      "lng": -47.9889971
    },
    {
      "id": "fs-sorocaba-av-antonio-carlos-comitre-s-n-18047620",
      "name": "FS SOROCABA",
      "address": "Av. Antônio Carlos Comitre, S/N",
      "city": "Sorocaba",
      "zip": "18047-620",
      "available": false,
      "lat": -23.5187698,
      "lng": -47.4642975
    },
    {
      "id": "shop-taboao-rod-regis-bittencourt-km-271-5-06768200",
      "name": "SHOP TABOAO",
      "address": "Rod. Régis Bittencourt Km 271,5",
      "city": "Taboão da Serra",
      "zip": "06768-200",
      "available": false
    },
    {
      "id": "shop-park-sul-rod-dos-metalurgicos-1189-27253005",
      "name": "SHOP PARK SUL",
      "address": "Rod. Dos Metalúrgicos, 1189",
      "city": "Volta Redonda",
      "zip": "27253-005",
      "available": false
    }
  ]
}